[{"node_id":1445,"slug":"dayton","title":"Dayton","latitude":"39.236131","longitude":"-119.589355","city":"Dayton","county":"Lyon County","marker_number":"7"},{"node_id":89,"slug":"west-end-of-hastings-cutoff","title":"West End of Hastings Cutoff","latitude":"40.766087","longitude":"-115.919748","city":"---","county":"Elko County","marker_number":"3"},{"node_id":131,"slug":"junction-house","title":"Junction House","latitude":"39.488971","longitude":"-119.794819","city":"Reno","county":"Washoe County","marker_number":"4"},{"node_id":90,"slug":"carson-city","title":"Carson City","latitude":"39.163924","longitude":"-119.766659","city":"---","county":"Carson City","marker_number":"44"},{"node_id":129,"slug":"empire-and-the-carson-river-mills","title":"Empire and the Carson River Mills","latitude":"39.187312","longitude":"-119.706358","city":"---","county":"Carson City","marker_number":"1"},{"node_id":130,"slug":"pioneer-memorial-park","title":"Pioneer Memorial Park","latitude":"40.978808","longitude":"-117.741942","city":"Winnemucca","county":"Humboldt County","marker_number":"2"},{"node_id":132,"slug":"pioche","title":"Pioche","latitude":"37.926683","longitude":"-114.449234","city":"Pioche","county":"Lincoln County","marker_number":"5"},{"node_id":133,"slug":"eldorado-canyon","title":"Eldorado Canyon","latitude":"35.827603","longitude":"-114.936414","city":"---","county":"Clark County","marker_number":"6"},{"node_id":134,"slug":"dayton-chinatown","title":"Dayton Chinatown","latitude":"39.236036","longitude":"-119.589379","city":"Dayton","county":"Lyon County","marker_number":"163"},{"node_id":135,"slug":"austin","title":"Austin","latitude":"39.498344","longitude":"-117.079528","city":"Austin","county":"Lander County","marker_number":"8"},{"node_id":136,"slug":"copper-country","title":"Copper Country","latitude":"39.283589","longitude":"-114.964238","city":"Ruth","county":"White Pine County","marker_number":"9"},{"node_id":137,"slug":"sand-mountain","title":"Sand Mountain","latitude":"39.27518","longitude":"-118.413353","city":"---","county":"Churchill County","marker_number":"10"},{"node_id":138,"slug":"eureka","title":"Eureka","latitude":"39.499881","longitude":"-115.958485","city":"Eureka","county":"Eureka County","marker_number":"11"},{"node_id":139,"slug":"nevadas-birth-place","title":"Nevada's Birthplace","latitude":"38.99598","longitude":"-119.78009","city":"---","county":"Douglas County","marker_number":"12"},{"node_id":140,"slug":"the-comstock-lode","title":"The Comstock Lode","latitude":"39.31617","longitude":"-119.647265","city":"Virginia City","county":"Storey County","marker_number":"13"},{"node_id":141,"slug":"goldfield","title":"Goldfield","latitude":"37.707608","longitude":"-117.233431","city":"Goldfield","county":"Esmeralda County","marker_number":"14"},{"node_id":142,"slug":"tonopah","title":"Tonopah","latitude":"38.066994","longitude":"-117.229351","city":"Tonopah","county":"Nye County","marker_number":"15"},{"node_id":143,"slug":"mineral-county","title":"Mineral County","latitude":"38.690385","longitude":"-118.770673","city":"---","county":"Mineral County","marker_number":"16"},{"node_id":144,"slug":"pershing-county","title":"Pershing County","latitude":"40.180457","longitude":"-118.476651","city":"Lovelock","county":"Pershing County","marker_number":"17"},{"node_id":145,"slug":"pyramid-lake","title":"Koqyoqe Panunadu - Pyramid Lake","latitude":"39.902459","longitude":"-119.565753","city":"---","county":"Washoe County","marker_number":"18"},{"node_id":146,"slug":"ragtown","title":"Ragtown","latitude":"39.505685","longitude":"-118.919229","city":"Fallon","county":"Churchill County","marker_number":"19"},{"node_id":147,"slug":"columbus","title":"Columbus","latitude":"38.149407","longitude":"-117.947939","city":"---","county":"Esmeralda County","marker_number":"20"},{"node_id":148,"slug":"the-humboldt-canal","title":"The Humboldt Canal","latitude":"40.982104","longitude":"-117.726696","city":"Winnemucca","county":"Humboldt County","marker_number":"21"},{"node_id":149,"slug":"humboldt-river","title":"Humboldt River","latitude":"41.016642","longitude":"-117.573543","city":"Golconda","county":"Humboldt County","marker_number":"22"},{"node_id":150,"slug":"humboldt-house","title":"Humboldt House","latitude":"40.598788","longitude":"-118.251635","city":"Imlay","county":"Pershing County","marker_number":"23"},{"node_id":151,"slug":"olinghouse","title":"Olinghouse","latitude":"39.649912","longitude":"-119.335741","city":"---","county":"Washoe County","marker_number":"24"},{"node_id":152,"slug":"nevadas-capital","title":"Nevada's Capital","latitude":"39.163897","longitude":"-119.766391","city":"---","county":"Carson City","marker_number":"25"},{"node_id":153,"slug":"forty-mile-desert","title":"Forty Mile Desert","latitude":"39.940687","longitude":"-118.750153","city":"---","county":"Churchill County","marker_number":"26"},{"node_id":154,"slug":"grimes-point","title":"Grimes Point","latitude":"39.401567","longitude":"-118.647333","city":"---","county":"Churchill County","marker_number":"27"},{"node_id":155,"slug":"mark-twain","title":"Mark Twain","latitude":"39.310097","longitude":"-119.649696","city":"Virginia City","county":"Storey County","marker_number":"28"},{"node_id":156,"slug":"chinese-in-nevada","title":"Chinese in Nevada","latitude":"39.534711","longitude":"-119.753426","city":"Sparks","county":"Washoe County","marker_number":"29"},{"node_id":157,"slug":"reno","title":"Reno","latitude":"39.524251","longitude":"-119.812394","city":"Reno","county":"Washoe County","marker_number":"30"},{"node_id":158,"slug":"old-spanish-trail","title":"Old Spanish Trail","latitude":"36.804102","longitude":"-114.068703","city":"Mesquite","county":"Clark County","marker_number":"31"},{"node_id":159,"slug":"old-spanish-trail-1","title":"Old Spanish Trail","latitude":"36.181224","longitude":"-115.133064","city":"Las Vegas","county":"Clark County","marker_number":"32"},{"node_id":160,"slug":"the-old-spanish-trail-1829-1850","title":"The Old Spanish Trail 1829-1850","latitude":"36.046865","longitude":"-115.406494","city":"Blue Diamond","county":"Clark County","marker_number":"33"},{"node_id":161,"slug":"the-old-spanish-trail-1829-1850-1","title":"The Old Spanish Trail 1829-1850","latitude":"36.01835","longitude":"-115.506856","city":"---","county":"Clark County","marker_number":"34"},{"node_id":162,"slug":"las-vegas-morman-fort","title":"Las Vegas Old Mormon Fort (Nevada's Oldest Building)","latitude":"36.1808082","longitude":"-115.133092403","city":"North Las Vegas","county":"Clark County","marker_number":"35"},{"node_id":163,"slug":"moapa-valley","title":"Moapa Valley","latitude":"36.633278","longitude":"-114.492248","city":"Moapa Valley","county":"Clark County","marker_number":"36"},{"node_id":164,"slug":"powell-of-the-colorado","title":"Powell of the Colorado","latitude":"36.307583","longitude":"-114.420423","city":"---","county":"Clark County","marker_number":"37"},{"node_id":165,"slug":"pahranagat-valley","title":"Pahranagat Valley","latitude":"37.362174","longitude":"-115.159125","city":"Alamo","county":"Lincoln County","marker_number":"38"},{"node_id":166,"slug":"panaca","title":"Panaca","latitude":"37.790112","longitude":"-114.388076","city":"Panaca","county":"Lincoln County","marker_number":"39"},{"node_id":168,"slug":"pueblo-grande-de-nevada","title":"Pueblo Grande de Nevada","latitude":"36.531298","longitude":"-114.441412","city":"---","county":"Clark County","marker_number":"41"},{"node_id":169,"slug":"big-smokey-valley","title":"Big Smokey Valley","latitude":"38.783165","longitude":"-117.175405","city":"---","county":"Nye County","marker_number":"42"},{"node_id":170,"slug":"derby-diversion-dam","title":"Derby Diversion Dam","latitude":"39.589009","longitude":"-119.446226","city":"---","county":"Washoe County","marker_number":"43"},{"node_id":171,"slug":"humboldt-wells","title":"Humboldt Wells","latitude":"41.117892","longitude":"-114.978171","city":"Wells","county":"Elko County","marker_number":"45"},{"node_id":172,"slug":"pilot-peak","title":"Pilot Peak","latitude":"40.843933","longitude":"-114.207478","city":"---","county":"Elko County","marker_number":"46"},{"node_id":173,"slug":"fort-halleck-site-1867-1886","title":"Fort Halleck Site 1867-1886","latitude":"40.956274","longitude":"-115.465769","city":"---","county":"Elko County","marker_number":"47"},{"node_id":174,"slug":"tuscarora","title":"Tuscarora","latitude":"41.281007","longitude":"-116.113917","city":"---","county":"Elko County","marker_number":"48"},{"node_id":175,"slug":"applegate-lassen-emigrant-trail-cutoff","title":"Applegate-Lassen Emigrant Trail Cutoff","latitude":"40.65228","longitude":"-118.165702","city":"Imlay","county":"Pershing County","marker_number":"49"},{"node_id":176,"slug":"carlin-canyon","title":"Carlin Canyon","latitude":"40.72794","longitude":"-116.019831","city":"---","county":"Elko County","marker_number":"50"},{"node_id":177,"slug":"schellbourne","title":"Schellbourne","latitude":"39.797254","longitude":"-114.741044","city":"---","county":"Elko County","marker_number":"51"},{"node_id":178,"slug":"cherry-creek","title":"Cherry Creek","latitude":"39.900905","longitude":"-114.886081","city":"Cherry Creek","county":"White Pine County","marker_number":"52"},{"node_id":179,"slug":"hamilton","title":"Hamilton","latitude":"39.353654","longitude":"-115.394466","city":"---","county":"White Pine County","marker_number":"53"},{"node_id":180,"slug":"ward-mining-district","title":"Ward Mining District","latitude":"39.088861","longitude":"-114.752903","city":"---","county":"White Pine County","marker_number":"54"},{"node_id":181,"slug":"caliente","title":"Caliente (Culverwell's Ranch)","latitude":"37.614345","longitude":"-114.512537","city":"Caliente","county":"Lincoln County","marker_number":"55"},{"node_id":182,"slug":"virgin-valley","title":"Virgin Valley","latitude":"36.804107","longitude":"-114.068481","city":"Mesquite","county":"Clark County","marker_number":"56"},{"node_id":183,"slug":"old-boundary","title":"Old Boundary","latitude":"37.002016","longitude":"-116.725944","city":"---","county":"Nye County","marker_number":"58"},{"node_id":184,"slug":"old-boundary-1","title":"Old Boundary","latitude":"37.044596","longitude":"-114.984411","city":"---","county":"Lincoln County","marker_number":"57"},{"node_id":185,"slug":"stokes-castle","title":"Stokes Castle","latitude":"39.493475","longitude":"-117.079915","city":"Austin","county":"Lander County","marker_number":"59"},{"node_id":186,"slug":"hawthorne","title":"Hawthorne-Present Mineral Co. Seat - - - Former Esmeralda Co. Seat","latitude":"38.53251","longitude":"-118.625006","city":"Hawthorne","county":"Mineral County","marker_number":"60"},{"node_id":187,"slug":"moundhouse","title":"Moundhouse","latitude":"39.214004","longitude":"-119.670048","city":"---","county":"Lyon County","marker_number":"61"},{"node_id":188,"slug":"truckee-river-west","title":"Truckee River","latitude":"39.509465","longitude":"-119.936945","city":"Mogul","county":"Washoe County","marker_number":"62"},{"node_id":189,"slug":"truckee-river-east","title":"Truckee River","latitude":"39.550095","longitude":"-119.573599","city":"---","county":"Washoe County","marker_number":"63"},{"node_id":190,"slug":"ophir","title":"Ophir","latitude":"38.938781","longitude":"-117.197451","city":"---","county":"Nye County","marker_number":"64"},{"node_id":191,"slug":"palisade","title":"Palisade","latitude":"40.601131","longitude":"-116.178075","city":"---","county":"Eureka County","marker_number":"65"},{"node_id":192,"slug":"jacobsville","title":"Jacobsville","latitude":"39.492893","longitude":"-117.183836","city":"---","county":"Lander County","marker_number":"66"},{"node_id":193,"slug":"austin-churches","title":"Austin Churches","latitude":"39.491955","longitude":"-117.070085","city":"Austin","county":"Lander County","marker_number":"67"},{"node_id":194,"slug":"wadsworth","title":"Wadsworth","latitude":"39.630926","longitude":"-119.27917","city":"Wadsworth","county":"Washoe County","marker_number":"68"},{"node_id":195,"slug":"jarbidge","title":"Jarbidge","latitude":"41.871744","longitude":"-115.43122","city":"Jarbidge","county":"Elko County","marker_number":"69"},{"node_id":196,"slug":"bliss-mansion","title":"Bliss Mansion","latitude":"39.167294","longitude":"-119.772154","city":"---","county":"Carson City","marker_number":"70"},{"node_id":197,"slug":"methodist-church-of-carson-city","title":"Methodist Church of Carson City","latitude":"39.164723","longitude":"-119.769636","city":"---","county":"Carson City","marker_number":"71"},{"node_id":198,"slug":"nevada-state-childrens-home","title":"Nevada Children's Home","latitude":"39.160038","longitude":"-119.76436","city":"---","county":"Carson City","marker_number":"72"},{"node_id":199,"slug":"unknown-soldiers","title":"Unknown Soldiers","latitude":"41.261992","longitude":"-114.193398","city":"Montello","county":"Elko County","marker_number":"73"},{"node_id":200,"slug":"wellington","title":"Wellington","latitude":"38.75193","longitude":"-119.370536","city":"Wellington","county":"Lyon County","marker_number":"74"},{"node_id":201,"slug":"federal-government-building-1888-1970","title":"Federal Government Building (1888-1970)","latitude":"39.166188","longitude":"-119.766671","city":"---","county":"Carson City","marker_number":"75"},{"node_id":202,"slug":"eagle-valley","title":"Eagle Valley","latitude":"39.124876","longitude":"-119.767540","city":"---","county":"Carson City","marker_number":"76"},{"node_id":203,"slug":"dat-so-la-lee","title":"Dat-So-La-Lee","latitude":"39.117891","longitude":"-119.754701","city":"---","county":"Carson City","marker_number":"77"},{"node_id":204,"slug":"orion-clemens-home","title":"Orion Clemens Home","latitude":"39.16672","longitude":"-119.769604","city":"---","county":"Carson City","marker_number":"78"},{"node_id":205,"slug":"civil-war-plot","title":"Civil War Plot","latitude":"39.536146","longitude":"-119.819837","city":"Reno","county":"Washoe County","marker_number":"79"},{"node_id":206,"slug":"eureka-courthouse","title":"Eureka Courthouse","latitude":"39.512349","longitude":"-115.961003","city":"Eureka","county":"Eureka County","marker_number":"80"},{"node_id":207,"slug":"grand-army-of-the-republic","title":"Grand Army of the Republic Tree","latitude":"39.536392","longitude":"-119.814745","city":"Reno","county":"Washoe County","marker_number":"81"},{"node_id":208,"slug":"diamond-valley","title":"Diamond Valley","latitude":"39.755569","longitude":"-116.083893","city":"---","county":"Eureka County","marker_number":"82"},{"node_id":209,"slug":"rock-creek","title":"Rock Creek (Cold Springs Station)","latitude":"39.390158","longitude":"-117.854349","city":"---","county":"Churchill County","marker_number":"83"},{"node_id":210,"slug":"jedediah-strong-smith","title":"Jedediah Strong Smith","latitude":"39.291445","longitude":"-114.837921","city":"Ely","county":"White Pine County","marker_number":"84"},{"node_id":211,"slug":"sutro","title":"Sutro","latitude":"39.272198","longitude":"-119.568172","city":"Dayton","county":"Lyon County","marker_number":"85"},{"node_id":212,"slug":"tule-springs","title":"Tule Springs","latitude":"36.322461","longitude":"-115.269333","city":"Las Vegas","county":"Clark County","marker_number":"86"},{"node_id":213,"slug":"savage-mansion-c-1861","title":"Savage Mansion (c. 1861)","latitude":"39.305347","longitude":"-119.651","city":"Virginia City","county":"Storey County","marker_number":"87"},{"node_id":214,"slug":"sparks","title":"Sparks","latitude":"39.538224","longitude":"-119.766486","city":"Sparks","county":"Washoe County","marker_number":"88"},{"node_id":215,"slug":"paradise-valley","title":"Paradise Valley","latitude":"41.491674","longitude":"-117.534556","city":"Paradise Valley","county":"Humboldt County","marker_number":"89"},{"node_id":216,"slug":"delmar","title":"Delamar, \"The Widow Maker\" 1893-1909","latitude":"37.619598","longitude":"-114.794884","city":"---","county":"Lincoln County","marker_number":"90"},{"node_id":217,"slug":"stewart-indian-school","title":"Stewart Indian School","latitude":"39.117722","longitude":"-119.75629","city":"---","county":"Carson City","marker_number":"91"},{"node_id":218,"slug":"candelaria-and-metallic-city","title":"Candelaria and Metallic City","latitude":"38.208077","longitude":"-118.001744","city":"---","county":"Mineral County","marker_number":"92"},{"node_id":219,"slug":"panaca-mercantile","title":"Panaca Mercantile","latitude":"37.791415","longitude":"-114.387868","city":"Panaca","county":"Lincoln County","marker_number":"93"},{"node_id":220,"slug":"the-winters-ranch","title":"The Winters Ranch - Rancho del Sierra","latitude":"39.308109","longitude":"-119.824988","city":"Washoe Valley","county":"Washoe County","marker_number":"94"},{"node_id":221,"slug":"battle-mountain","title":"Battle Mountain","latitude":"40.641894","longitude":"-116.934046","city":"Battle Mountain","county":"Lander County","marker_number":"95"},{"node_id":222,"slug":"round-mountain","title":"Round Mountain","latitude":"38.726551","longitude":"-117.114944","city":"Round Mountain","county":"Nye County","marker_number":"96"},{"node_id":223,"slug":"manhattan-the-pine-tree-camp","title":"Manhattan \"The Pine Tree Camp\"","latitude":"38.572372","longitude":"-117.180949","city":"---","county":"Nye County","marker_number":"97"},{"node_id":224,"slug":"osceola-1872-1940","title":"Osceola 1872-1940","latitude":"39.071317","longitude":"-114.449518","city":"---","county":"White Pine County","marker_number":"98"},{"node_id":225,"slug":"taylor","title":"Taylor","latitude":"39.088917","longitude":"-114.752759","city":"---","county":"White Pine County","marker_number":"99"},{"node_id":226,"slug":"nevada-northern-railway","title":"Nevada Northern Railway","latitude":"39.252605","longitude":"-114.878592","city":"Ely","county":"White Pine County","marker_number":"100"},{"node_id":227,"slug":"millers","title":"Millers","latitude":"38.140509","longitude":"-117.45442","city":"---","county":"Esmeralda County","marker_number":"101"},{"node_id":228,"slug":"goodsprings","title":"Goodsprings Mining District 1856-1957","latitude":"35.832285","longitude":"-115.434308","city":"Goodsprings","county":"Clark County","marker_number":"102"},{"node_id":229,"slug":"gypsum-cave-no-marker-present","title":"Gypsum Cave - no marker present","latitude":"36.213337","longitude":"-114.901206","city":"Las Vegas","county":"Clark County","marker_number":"103"},{"node_id":230,"slug":"the-camel-corps","title":"The Camel Corps","latitude":"35.172087","longitude":"-114.710797","city":"Laughlin","county":"Clark County","marker_number":"104"},{"node_id":231,"slug":"golconda","title":"Golconda","latitude":"40.948614","longitude":"-117.486583","city":"Golconda","county":"Humboldt County","marker_number":"105"},{"node_id":232,"slug":"elko","title":"Elko","latitude":"40.84139","longitude":"-115.753441","city":"Elko","county":"Elko County","marker_number":"106"},{"node_id":233,"slug":"elko-airport","title":"Elko Airport","latitude":"40.828743","longitude":"-115.780109","city":"Elko","county":"Elko County","marker_number":"107"},{"node_id":234,"slug":"ruby-valley-pony-express-station","title":"Ruby Valley Pony Express Station","latitude":"40.841851","longitude":"-115.752835","city":"Elko","county":"Elko County","marker_number":"108"},{"node_id":235,"slug":"lamoille-valley","title":"Lamoille Valley","latitude":"40.727632","longitude":"-115.479733","city":"Lamoille","county":"Elko County","marker_number":"109"},{"node_id":236,"slug":"wagon-jack-shelter","title":"Wagon Jack Shelter","latitude":"39.302441","longitude":"-117.883495","city":"---","county":"Churchill County","marker_number":"110"},{"node_id":237,"slug":"edwards-creek-valley","title":"Edwards Creek Valley","latitude":"39.530296","longitude":"-117.725999","city":"---","county":"Churchill County","marker_number":"111"},{"node_id":238,"slug":"carlin","title":"Carlin","latitude":"40.710312","longitude":"-116.118394","city":"Carlin","county":"Elko County","marker_number":"112"},{"node_id":239,"slug":"wabuska","title":"Wabuska","latitude":"39.143603","longitude":"-119.181766","city":"---","county":"Lyon County","marker_number":"113"},{"node_id":240,"slug":"franktown","title":"Franktown","latitude":"39.271401","longitude":"-119.84079","city":"Washoe Valley","county":"Washoe County","marker_number":"114"},{"node_id":241,"slug":"potosi","title":"Potosi","latitude":"36.000991","longitude":"-115.485424","city":"---","county":"Clark County","marker_number":"115"},{"node_id":242,"slug":"searchlight","title":"Searchlight","latitude":"35.468306","longitude":"-114.922613","city":"Searchlight","county":"Clark County","marker_number":"116"},{"node_id":243,"slug":"kingsbury-grade","title":"Kingsbury Grade","latitude":"38.96555","longitude":"-119.839676","city":"---","county":"Douglas County","marker_number":"117"},{"node_id":244,"slug":"luther-canyon","title":"Luther Canyon (Fay Canyon)","latitude":"38.870489","longitude":"-119.809402","city":"---","county":"Douglas County","marker_number":"118"},{"node_id":245,"slug":"reuel-colt-gridley-citizen-extraordinaire","title":"Reuel Colt Gridley \"Citizen Extraordinaire\"","latitude":"39.489508","longitude":"-117.062922","city":"Austin","county":"Lander County","marker_number":"119"},{"node_id":246,"slug":"walleys-hot-springs","title":"Walley's Hot Springs","latitude":"38.981193","longitude":"-119.833243","city":"Genoa","county":"Douglas County","marker_number":"120"},{"node_id":247,"slug":"mottsville","title":"Mottsville","latitude":"38.931096","longitude":"-119.840046","city":"---","county":"Douglas County","marker_number":"121"},{"node_id":248,"slug":"sheridan","title":"Sheridan","latitude":"38.901252","longitude":"-119.825849","city":"---","county":"Douglas County","marker_number":"122"},{"node_id":249,"slug":"cradlebaugh-bridge","title":"Cradlebaugh Bridge","latitude":"39.046729","longitude":"-119.780249","city":"---","county":"Douglas County","marker_number":"123"},{"node_id":250,"slug":"boyd-toll-road","title":"Boyd Toll Road","latitude":"38.987612","longitude":"-119.779225","city":"---","county":"Douglas County","marker_number":"124"},{"node_id":251,"slug":"twelve-mile-house","title":"Twelve Mile House","latitude":"38.905804","longitude":"-119.706766","city":"---","county":"Douglas County","marker_number":"125"},{"node_id":252,"slug":"double-springs","title":"Double Springs","latitude":"38.793525","longitude":"-119.599536","city":"---","county":"Douglas County","marker_number":"126"},{"node_id":253,"slug":"courthouse-site-1865-1909","title":"Courthouse Site 1865 - 1909","latitude":"39.238094","longitude":"-119.591121","city":"Dayton","county":"Lyon County","marker_number":"127"},{"node_id":254,"slug":"the-great-train-robbery","title":"The Great Train Robbery","latitude":"39.517454","longitude":"-119.988445","city":"Verdi","county":"Washoe County","marker_number":"128"},{"node_id":255,"slug":"gardnerville","title":"Gardnerville","latitude":"38.940808","longitude":"-119.74883","city":"Gardnerville","county":"Douglas County","marker_number":"129"},{"node_id":256,"slug":"minden","title":"Minden","latitude":"38.952691","longitude":"-119.761831","city":"Minden","county":"Douglas County","marker_number":"130"},{"node_id":257,"slug":"dresslerville","title":"Dresslerville","latitude":"38.905171","longitude":"-119.70642","city":"---","county":"Douglas County","marker_number":"131"},{"node_id":258,"slug":"mackay-mansion","title":"Mackay Mansion","latitude":"39.306649","longitude":"-119.650202","city":"Virginia City","county":"Storey County","marker_number":"132"},{"node_id":259,"slug":"fish-lake-valley","title":"Fish Lake Valley","latitude":"37.693977","longitude":"-118.09026","city":"Dyer","county":"Esmeralda County","marker_number":"133"},{"node_id":260,"slug":"trans-sierran-pioneer-flight","title":"Tran-Sierran Pioneer Flight","latitude":"39.172323","longitude":"-119.748925","city":"---","county":"Carson City","marker_number":"134"},{"node_id":261,"slug":"new-pass","title":"New Pass Station","latitude":"39.567417","longitude":"-117.510172","city":"---","county":"Churchill County","marker_number":"135"},{"node_id":262,"slug":"toquima-cave","title":"Toquima Cave","latitude":"39.399926","longitude":"-116.941823","city":"---","county":"Lander County","marker_number":"136"},{"node_id":263,"slug":"hickison-summit","title":"Hickison Summit","latitude":"39.444361","longitude":"-116.743148","city":"---","county":"Lander County","marker_number":"137"},{"node_id":5024,"slug":"belmont","title":"Belmont","latitude":"38.595428","longitude":"-116.875483","city":"","county":"Nye County","marker_number":"138"},{"node_id":265,"slug":"old-spanish-trail-the-journey-of-death","title":"Old Spanish Trail (The Journey of the Dead Man)","latitude":"36.499499","longitude":"-114.760968","city":"---","county":"Clark County","marker_number":"139"},{"node_id":266,"slug":"the-garces-expedition","title":"The Garc\u00e9s Expedition","latitude":"35.106536","longitude":"-114.650723","city":"---","county":"Clark County","marker_number":"140"},{"node_id":267,"slug":"old-spanish-trail-2","title":"Old Spanish Trail - Armijo's Route","latitude":"36.097652","longitude":"-114.904643","city":"Las Vegas","county":"Clark County","marker_number":"141"},{"node_id":268,"slug":"old-spanish-trail-mountain-springs-pass","title":"Old Spanish Trail (Mountain Springs Pass)","latitude":"35.998436","longitude":"-115.447709","city":"---","county":"Clark County","marker_number":"142"},{"node_id":269,"slug":"sarah-winnemucca-hopkins","title":"Sarah Winnemucca Hopkins (1844-1891)","latitude":"41.972534","longitude":"-117.622723","city":"Fort McDermitt","county":"Humboldt County","marker_number":"143"},{"node_id":270,"slug":"fort-mcdermitt","title":"Fort McDermitt","latitude":"41.942901","longitude":"-117.707561","city":"Fort McDermitt","county":"Humboldt County","marker_number":"144"},{"node_id":271,"slug":"unionville","title":"Unionville (Pershing County)","latitude":"40.449753","longitude":"-118.071769","city":"---","county":"Pershing County","marker_number":"145"},{"node_id":272,"slug":"fort-mcdermitt-indian-reservation","title":"McDermitt Indian Reservation","latitude":"41.945057","longitude":"-117.711736","city":"Fort McDermitt","county":"Humboldt County","marker_number":"146"},{"node_id":273,"slug":"a-home-of-early-man","title":"People of the Humboldt","latitude":"39.940653","longitude":"-118.749496","city":"---","county":"Churchill County","marker_number":"147"},{"node_id":274,"slug":"the-two-battles-of-pyramid-lake","title":"The Two Battles of Pyramid Lake","latitude":"39.749278","longitude":"-119.331785","city":"---","county":"Washoe County","marker_number":"148"},{"node_id":275,"slug":"high-rock-canyon-no-marker-present","title":"High Rock Canyon","latitude":"41.227318","longitude":"-119.491755","city":"---","county":"Washoe County","marker_number":"149"},{"node_id":276,"slug":"nevadas-first-state-park","title":"Nevada's First State Park","latitude":"36.429923","longitude":"-114.513955","city":"---","county":"Clark County","marker_number":"150"},{"node_id":277,"slug":"duck-valley-indian-reservation","title":"Duck Valley Indian Reservation","latitude":"41.985686","longitude":"-116.119089","city":"Owyhee","county":"Elko County","marker_number":"151"},{"node_id":278,"slug":"gerlach","title":"Gerlach","latitude":"40.651621","longitude":"-119.354358","city":"Gerlach","county":"Washoe County","marker_number":"152"},{"node_id":279,"slug":"jarbidge-community-hall","title":"Jarbidge Community Hall","latitude":"41.875519","longitude":"-115.430682","city":"Jarbidge","county":"Elko County","marker_number":"153"},{"node_id":280,"slug":"belleville","title":"Belleville","latitude":"38.222908","longitude":"-118.180332","city":"---","county":"Mineral County","marker_number":"154"},{"node_id":281,"slug":"silver-peak","title":"Silver Peak","latitude":"38.018305","longitude":"-117.775778","city":"---","county":"Esmeralda County","marker_number":"155"},{"node_id":282,"slug":"gold-point","title":"Gold Point","latitude":"37.437505","longitude":"-117.284975","city":"---","county":"Esmeralda County","marker_number":"156"},{"node_id":283,"slug":"lida","title":"Lida","latitude":"37.455434","longitude":"-117.499636","city":"---","county":"Esmeralda County","marker_number":"157"},{"node_id":284,"slug":"palmetto","title":"Palmetto","latitude":"37.444168","longitude":"-117.694873","city":"---","county":"Esmeralda County","marker_number":"158"},{"node_id":285,"slug":"ione","title":"Ione","latitude":"38.949536","longitude":"-117.585166","city":"---","county":"Nye County","marker_number":"159"},{"node_id":286,"slug":"panaca-spring","title":"Panaca Spring","latitude":"37.795446","longitude":"-114.385129","city":"Panaca","county":"Lincoln County","marker_number":"160"},{"node_id":287,"slug":"churchill-county-courthouse","title":"Churchill County Courthouse","latitude":"39.474987","longitude":"-118.777356","city":"Fallon","county":"Churchill County","marker_number":"161"},{"node_id":288,"slug":"camp-mcgarry","title":"Camp McGarry","latitude":"41.394447","longitude":"-119.166116","city":"---","county":"Humboldt County","marker_number":"162"},{"node_id":289,"slug":"button-point","title":"Button Point","latitude":"41.016539","longitude":"-117.573459","city":"---","county":"Humboldt County","marker_number":"164"},{"node_id":290,"slug":"nevada-test-site","title":"Nevada Test Site","latitude":"36.592657","longitude":"-116.028351","city":"---","county":"Nye County","marker_number":"165"},{"node_id":291,"slug":"bowers-mansion","title":"Bowers Mansion","latitude":"39.284693","longitude":"-119.84061","city":"Washoe Valley","county":"Washoe County","marker_number":"166"},{"node_id":292,"slug":"valmy","title":"Valmy","latitude":"40.78889","longitude":"-117.129009","city":"Valmy","county":"Humboldt County","marker_number":"167"},{"node_id":293,"slug":"arrowhead-trail","title":"Arrowhead Trail (1914-1924)","latitude":"36.426315","longitude":"-114.463134","city":"---","county":"Clark County","marker_number":"168"},{"node_id":294,"slug":"glendale-school-1864-1958","title":"Glendale School (1864-1958) \u201cOldest Remaining School Building in Nevada\u201d","latitude":"39.534573","longitude":"-119.754847","city":"Sparks","county":"Washoe County","marker_number":"169"},{"node_id":295,"slug":"eureka-sentinel-building","title":"Eureka Sentinel Building","latitude":"39.512468","longitude":"-115.961652","city":"Eureka","county":"Eureka County","marker_number":"170"},{"node_id":296,"slug":"chief-tecopa","title":"Chief Tecopa Peacemaker of the Paiutes","latitude":"36.209098","longitude":"-115.989518","city":"Pahrump","county":"Nye County","marker_number":"171"},{"node_id":297,"slug":"tybo","title":"Tybo  (Silver \u2014 Lead \u2014 Zinc Camp)","latitude":"38.31003","longitude":"-116.275635","city":"---","county":"Nye County","marker_number":"172"},{"node_id":298,"slug":"beatty","title":"Beatty","latitude":"36.905963","longitude":"-116.755789","city":"Beatty","county":"Nye County","marker_number":"173"},{"node_id":299,"slug":"blair","title":"Blair","latitude":"37.787702","longitude":"-117.636535","city":"---","county":"Esmeralda County","marker_number":"174"},{"node_id":300,"slug":"stewart-nye-residence","title":"Stewart - Nye Residence","latitude":"39.163987","longitude":"-119.770685","city":"---","county":"Carson City","marker_number":"175"},{"node_id":301,"slug":"the-surveyors","title":"The Surveyors","latitude":"39.457089","longitude":"-116.996581","city":"---","county":"Lander County","marker_number":"176"},{"node_id":302,"slug":"desert-well-station","title":"Desert Well Station (Overland Mail and Stage Station)","latitude":"39.36412","longitude":"-119.365569","city":"Stagecoach","county":"Lyon County","marker_number":"177"},{"node_id":303,"slug":"hazen","title":"Hazen","latitude":"39.563469","longitude":"-119.047996","city":"---","county":"Churchill County","marker_number":"178"},{"node_id":304,"slug":"first-air-flight-over-nevada","title":"First Air Flight Over Nevada  Nevada June 23, 1910","latitude":"39.198266","longitude":"-119.778497","city":"---","county":"Carson City","marker_number":"179"},{"node_id":305,"slug":"the-warm-springs-hotel","title":"The Warm Springs Hotel and Nevada State Prison","latitude":"39.161332","longitude":"-119.739001","city":"---","county":"Carson City","marker_number":"180"},{"node_id":306,"slug":"washoe-indians","title":"Washo Indians","latitude":"39.115149","longitude":"-119.859494","city":"---","county":"Carson City","marker_number":"181"},{"node_id":307,"slug":"panaca-ward-chapel","title":"Panaca Ward Chapel","latitude":"37.790921","longitude":"-114.387486","city":"Panaca","county":"Lincoln County","marker_number":"182"},{"node_id":308,"slug":"walker-river-reservation","title":"Walker River Reservation","latitude":"38.952343","longitude":"-118.810608","city":"Schurz","county":"Mineral County","marker_number":"183"},{"node_id":309,"slug":"ward-charcoal-ovens","title":"Ward Charcoal Ovens","latitude":"39.037381","longitude":"-114.846372","city":"---","county":"White Pine County","marker_number":"184"},{"node_id":310,"slug":"mccones-foundries","title":"McCone's Foundries","latitude":"39.29882","longitude":"-119.655658","city":"Virginia City","county":"Lyon County","marker_number":"185"},{"node_id":311,"slug":"union-hotel-post-office","title":"Union Hotel & Post Office","latitude":"39.236143","longitude":"-119.590638","city":"Dayton","county":"Lyon County","marker_number":"186"},{"node_id":312,"slug":"the-cattle-industry","title":"The Cattle Industry","latitude":"40.68014","longitude":"-116.473798","city":"---","county":"Eureka County","marker_number":"187"},{"node_id":313,"slug":"von-schmidt-state-boundry-mon","title":"Von Schmidt State Boundry Monument","latitude":"35.014268","longitude":"-114.661826","city":"---","county":"Clark County","marker_number":"188"},{"node_id":314,"slug":"southern-pacific-railroad-yards","title":"Southern Pacific Railroad Yards","latitude":"39.534695","longitude":"-119.752618","city":"Sparks","county":"Washoe County","marker_number":"189"},{"node_id":315,"slug":"original-home-of-pop-squires","title":"Original Homesite of a Las Vegas Pioneer \"Pop\" Squires 1865-1958","latitude":"36.16468","longitude":"-115.140812","city":"Las Vegas","county":"Clark County","marker_number":"190"},{"node_id":316,"slug":"verdi","title":"Verdi","latitude":"39.515945","longitude":"-119.993731","city":"Verdi","county":"Washoe County","marker_number":"191"},{"node_id":317,"slug":"bucklands-station","title":"Buckland's Station","latitude":"39.294228","longitude":"-119.251578","city":"---","county":"Lyon County","marker_number":"192"},{"node_id":318,"slug":"historic-flume-and-lumberyard","title":"Historic Flume and Lumberyard","latitude":"39.151942","longitude":"-119.76645","city":"---","county":"Carson City","marker_number":"193"},{"node_id":319,"slug":"gardners-ranch","title":"Gardner's Ranch","latitude":"39.152929","longitude":"-119.767267","city":"---","county":"Carson City","marker_number":"194"},{"node_id":320,"slug":"the-last-spike","title":"The Last Spike","latitude":"35.839769","longitude":"-115.271795","city":"---","county":"Clark County","marker_number":"195"},{"node_id":321,"slug":"the-united-states-mint-carson-city-nevada","title":"The United States Mint Carson City, Nevada","latitude":"39.167733","longitude":"-119.767309","city":"---","county":"Carson City","marker_number":"196"},{"node_id":322,"slug":"arrowhead-trail-henderson","title":"Arrowhead Trail - Henderson","latitude":"35.995946","longitude":"-114.961606","city":"Henderson","county":"Clark County","marker_number":"197"},{"node_id":323,"slug":"steamboat-springs","title":"Steamboat Springs","latitude":"39.379958","longitude":"-119.742317","city":"Reno","county":"Washoe County","marker_number":"198"},{"node_id":324,"slug":"camels-in-dayton","title":"Camels in Dayton","latitude":"39.238749","longitude":"-119.591254","city":"Dayton","county":"Lyon County","marker_number":"199"},{"node_id":325,"slug":"halls-station","title":"Hall's Station","latitude":"39.235818","longitude":"-119.592469","city":"Dayton","county":"Lyon County","marker_number":"200"},{"node_id":326,"slug":"wonder","title":"Wonder","latitude":"39.287123","longitude":"-118.16207","city":"---","county":"Churchill County","marker_number":"201"},{"node_id":327,"slug":"fairview","title":"Fairview  1905 \u2013 1917","latitude":"39.283282","longitude":"-118.214901","city":"---","county":"Churchill County","marker_number":"202"},{"node_id":328,"slug":"bullionville","title":"Bullionville","latitude":"37.806562","longitude":"-114.406246","city":"---","county":"Lincoln County","marker_number":"203"},{"node_id":329,"slug":"jackrabbit","title":"Jackrabbit","latitude":"38.095466","longitude":"-114.5823","city":"---","county":"Lincoln County","marker_number":"204"},{"node_id":330,"slug":"crystal-springs","title":"Crystal Springs","latitude":"37.532594","longitude":"-115.233563","city":"---","county":"Lincoln County","marker_number":"205"},{"node_id":331,"slug":"hiko","title":"Hiko","latitude":"37.596712","longitude":"-115.223904","city":"---","county":"Lincoln County","marker_number":"206"},{"node_id":332,"slug":"carson-valley","title":"Carson Valley","latitude":"38.974261","longitude":"-119.877126","city":"---","county":"Douglas County","marker_number":"207"},{"node_id":333,"slug":"international-hotel","title":"International Hotel","latitude":"39.493718","longitude":"-117.072493","city":"Austin","county":"Lander County","marker_number":"208"},{"node_id":334,"slug":"chollar-mine","title":"Chollar Mine","latitude":"39.301941","longitude":"-119.651127","city":"Virginia City","county":"Storey County","marker_number":"209"},{"node_id":335,"slug":"nco-railroad-depot-1910","title":"N.C.O. Railroad Depot - 1910","latitude":"39.530944","longitude":"-119.809479","city":"Reno","county":"Washoe County","marker_number":"210"},{"node_id":336,"slug":"old-geiger-grade","title":"Old Geiger Grade","latitude":"39.372601","longitude":"-119.667607","city":"---","county":"Washoe County","marker_number":"211"},{"node_id":337,"slug":"galena","title":"Galena","latitude":"39.362563","longitude":"-119.817533","city":"Reno","county":"Washoe County","marker_number":"212"},{"node_id":338,"slug":"lakeview","title":"Lakeview","latitude":"39.207966","longitude":"-119.802901","city":"---","county":"Carson City","marker_number":"213"},{"node_id":339,"slug":"rafel-rivera","title":"Rafael Rivera","latitude":"36.083547","longitude":"-115.072765","city":"Las Vegas","county":"Clark County","marker_number":"214"},{"node_id":340,"slug":"lahontan-dam","title":"Lahontan Dam","latitude":"39.466105","longitude":"-119.069503","city":"---","county":"Churchill County","marker_number":"215"},{"node_id":341,"slug":"stillwater","title":"Stillwater","latitude":"39.521659","longitude":"-118.546626","city":"---","county":"Churchill County","marker_number":"216"},{"node_id":342,"slug":"tates-stage-station","title":"Tate's Stage Station 1886-1901","latitude":"38.978275","longitude":"-117.196327","city":"---","county":"Nye County","marker_number":"217"},{"node_id":343,"slug":"geiger-station","title":"Geiger Station","latitude":"39.375751","longitude":"-119.715927","city":"Reno","county":"Washoe County","marker_number":"218"},{"node_id":344,"slug":"glenbrook","title":"Glenbrook","latitude":"39.081489","longitude":"-119.942589","city":"Glenbrook","county":"Douglas County","marker_number":"219"},{"node_id":345,"slug":"the-fight-of-the-century","title":"The Fight of the Century","latitude":"39.533188","longitude":"-119.796434","city":"Reno","county":"Washoe County","marker_number":"220"},{"node_id":346,"slug":"sand-harbor","title":"Sand Harbor (1881-1896)","latitude":"39.200494","longitude":"-119.929941","city":"---","county":"Washoe County","marker_number":"221"},{"node_id":347,"slug":"tannehill-cabin","title":"Tannehill Cabin One of Eureka's First Houses","latitude":"39.503149","longitude":"-115.959516","city":"Eureka","county":"Eureka County","marker_number":"222"},{"node_id":348,"slug":"devils-gate","title":"Devil's Gate","latitude":"39.266623","longitude":"-119.643199","city":"---","county":"Lyon County","marker_number":"223"},{"node_id":349,"slug":"kyle-kiel-ranch","title":"Kyle (Kiel) Ranch","latitude":"36.203273","longitude":"-115.140478","city":"North Las Vegas","county":"Clark County","marker_number":"224"},{"node_id":350,"slug":"spooner-area","title":"Spooner Area (Logging and Lumbering Period: 1868 \u2013 1895)","latitude":"39.106219","longitude":"-119.918022","city":"---","county":"Douglas County","marker_number":"225"},{"node_id":351,"slug":"lake-mansion","title":"Lake Mansion Home of Myron C. Lake Founder of Reno 1877","latitude":"39.522695","longitude":"-119.816047","city":"Reno","county":"Washoe County","marker_number":"227"},{"node_id":352,"slug":"the-great-fire-of-1875","title":"The Great Fire of 1875","latitude":"39.31053","longitude":"-119.650957","city":"Virginia City","county":"Storey County","marker_number":"228"},{"node_id":353,"slug":"oil-from-shale","title":"Oil From Shale","latitude":"40.82554","longitude":"-115.779914","city":"Elko","county":"Elko County","marker_number":"229"},{"node_id":354,"slug":"mount-rose-weather-observatory","title":"Mount Rose Weather Observatory","latitude":"39.313054","longitude":"-119.897396","city":"---","county":"Washoe County","marker_number":"230"},{"node_id":355,"slug":"star-city","title":"Star City","latitude":"40.55325","longitude":"-118.051641","city":"---","county":"Pershing County","marker_number":"231"},{"node_id":356,"slug":"reunion-in-unionville","title":"Reunion in Unionville","latitude":"40.448044","longitude":"-118.146047","city":"---","county":"Pershing County","marker_number":"232"},{"node_id":357,"slug":"dayton-cemetery","title":"Dayton Cemetery","latitude":"39.233421","longitude":"-119.597071","city":"Dayton","county":"Lyon County","marker_number":"233"},{"node_id":358,"slug":"moana-springs","title":"Moana Springs","latitude":"39.491117","longitude":"-119.800011","city":"Reno","county":"Washoe County","marker_number":"234"},{"node_id":359,"slug":"camp-nye","title":"Camp Nye 1864-1865","latitude":"39.16242","longitude":"-119.794175","city":"---","county":"Carson City","marker_number":"235"},{"node_id":360,"slug":"pipers-opera-house","title":"Piper's Opera House","latitude":"39.310991","longitude":"-119.650105","city":"Virginia City","county":"Storey County","marker_number":"236"},{"node_id":361,"slug":"carson-and-colorado-rr-freight-depot","title":"Carson and Colorado R.R. Freight Depot","latitude":"38.52433","longitude":"-118.623862","city":"Hawthorne","county":"Mineral County","marker_number":"237"},{"node_id":362,"slug":"huffackers","title":"Huffaker's","latitude":"39.441341","longitude":"-119.771873","city":"Reno","county":"Washoe County","marker_number":"238"},{"node_id":363,"slug":"stonehouse","title":"Stonehouse","latitude":"40.839754","longitude":"-117.191418","city":"---","county":"Humboldt County","marker_number":"239"},{"node_id":364,"slug":"coney-island","title":"Coney Island","latitude":"39.534931","longitude":"-119.780546","city":"Reno","county":"Washoe County","marker_number":"240"},{"node_id":365,"slug":"southern-nevada-telephone-telegraph-company-bldg","title":"Southern Nevada Consolidated Telephone - Telegraph Company Building","latitude":"37.709118","longitude":"-117.234879","city":"Goldfield","county":"Esmeralda County","marker_number":"242"},{"node_id":366,"slug":"corbett-fitzsimmon-fight","title":"Corbett-Fitzsimmon Fight","latitude":"39.164453","longitude":"-119.759682","city":"---","county":"Carson City","marker_number":"243"},{"node_id":367,"slug":"dinner-station","title":"Dinner Station","latitude":"41.099749","longitude":"-115.866355","city":"---","county":"Elko County","marker_number":"244"},{"node_id":369,"slug":"the-great-incline-of-the-sierra-nevada","title":"The Great Incline of the Sierra Nevada","latitude":"39.236793","longitude":"-119.928791","city":"Incline Village","county":"Washoe County","marker_number":"246"},{"node_id":370,"slug":"site-of-nevadas-first-public-library","title":"Site of Nevada's First Public Library","latitude":"39.524939","longitude":"-119.812356","city":"Reno","county":"Washoe County","marker_number":"247"},{"node_id":371,"slug":"virginia-and-truckee-railroad-right-of-way","title":"Virginia and Truckee Railroad Right-of-Way","latitude":"39.516839","longitude":"-119.806989","city":"Reno","county":"Washoe County","marker_number":"248"},{"node_id":372,"slug":"union-pacific-depot-1923","title":"Union Pacific Depot 1923 (Caliente)","latitude":"37.612767","longitude":"-114.51388","city":"Caliente","county":"Lincoln County","marker_number":"249"},{"node_id":373,"slug":"state-printing-building","title":"State Printing Building","latitude":"39.163794","longitude":"-119.765026","city":"---","county":"Carson City","marker_number":"250"},{"node_id":374,"slug":"diamondfield-jack-davis","title":"Diamondfield Jack Davis","latitude":"41.984799","longitude":"-114.671903","city":"Jackpot","county":"Elko County","marker_number":"251"},{"node_id":375,"slug":"rinckel-mansion","title":"Rinckel Mansion","latitude":"39.164033","longitude":"-119.768251","city":"---","county":"Carson City","marker_number":"252"},{"node_id":376,"slug":"emigrant-donner-camp","title":"Emigrant-Donner Camp","latitude":"39.475983","longitude":"-119.754152","city":"Reno","county":"Washoe County","marker_number":"253"},{"node_id":377,"slug":"nevadas-mining-heritage","title":"Nevada's Mining Heritage","latitude":"39.55526","longitude":"-115.995721","city":"---","county":"---","marker_number":"254"},{"node_id":378,"slug":"wilson-canyon","title":"Wilson Canyon","latitude":"38.809668","longitude":"-119.220149","city":"---","county":"Lyon County","marker_number":"255"},{"node_id":379,"slug":"historic-transportation","title":"Historic Transportation","latitude":"39.625214","longitude":"-119.915506","city":"---","county":"---","marker_number":"256"},{"node_id":380,"slug":"nevadas-first-gold-discovery","title":"Nevada's First Gold Discovery","latitude":"39.235897","longitude":"-119.591806","city":"Dayton","county":"Lyon County","marker_number":"257"},{"node_id":381,"slug":"charles-w-friend-house-observatory-weather-station","title":"Charles W. Friend House, Observatory & Weather Station","latitude":"39.16408","longitude":"-119.764283","city":"---","county":"Carson City","marker_number":"258"},{"node_id":382,"slug":"the-governors-mansion","title":"The Governor's Mansion","latitude":"39.167279","longitude":"-119.773","city":"---","county":"Carson City","marker_number":"259"},{"node_id":384,"slug":"spooner-summit","title":"Spooner Summit","latitude":"39.104272","longitude":"-119.895662","city":"---","county":"Douglas County","marker_number":"261"},{"node_id":385,"slug":"dayton-school-house-1865","title":"Dayton School House - 1865","latitude":"39.237918","longitude":"-119.59248","city":"Dayton","county":"Lyon County","marker_number":"262"},{"node_id":386,"slug":"oats-park-school","title":"Oats Park School","latitude":"39.473455","longitude":"-118.768677","city":"Fallon","county":"Churchill County","marker_number":"263"},{"node_id":387,"slug":"silver-city-school-house","title":"Silver City School House","latitude":"39.264552","longitude":"-119.639577","city":"---","county":"Lyon County","marker_number":"264"},{"node_id":388,"slug":"governor-emmet-derby-boyle","title":"Governor Emmet Derby Boyle","latitude":"39.525219","longitude":"-119.845045","city":"Reno","county":"Washoe County","marker_number":"265"},{"node_id":389,"slug":"african-americans-and-the-boston-saloon","title":"African Americans and the Boston Saloon","latitude":"39.31054023","longitude":"-119.648378849","city":"Virginia City","county":"Storey County","marker_number":"266"},{"node_id":390,"slug":"galena-creek-fish-hatchery","title":"Galena Creek Fish Hatchery","latitude":"39.352698","longitude":"-119.86029","city":"---","county":"Washoe County","marker_number":"267"},{"node_id":391,"slug":"ely-forging-the-link","title":"Ely Forging The Link","latitude":"39.248183","longitude":"-114.891176","city":"Ely","county":"White Pine County","marker_number":"269"},{"node_id":392,"slug":"the-morelli-house","title":"The Morelli House","latitude":"36.165302","longitude":"-115.137757","city":"Las Vegas","county":"Clark County","marker_number":"270"},{"node_id":393,"slug":"pony-express-route","title":"Pony Express Route- 1860 Sesquicentennial 2010","latitude":"39.287543","longitude":"-118.571504","city":"---","county":"Churchill County","marker_number":"271"},{"node_id":5022,"slug":"shellbourne","title":"Shellbourne","latitude":"39.797454","longitude":"-114.741346","city":"","county":"White Pine County","marker_number":"51"},{"node_id":2999,"slug":"frederic-joseph-delongchamps","title":"Frederic Joseph DeLongchamps","latitude":"39.524949","longitude":"-119.812228","city":"Reno","county":"Washoe County","marker_number":"245"},{"node_id":1447,"slug":"las-vegas-the-meadows-1","title":"Las Vegas (The Meadows)","latitude":"36.171806","longitude":"-115.189470","city":"Las Vegas","county":"Clark County","marker_number":"40"},{"node_id":1449,"slug":"grand-army-of-the-republic-cemetery","title":"Grand Army of the Republic Cemetery","latitude":"39.536154","longitude":"-119.819878","city":"Reno","county":"Washoe County","marker_number":"79"},{"node_id":1474,"slug":"de-ek-wadapush-cave-rock","title":"De Ek Wadapush (Cave Rock)","latitude":"39.044303","longitude":"-119.948970","city":"---","county":"Douglas County","marker_number":""},{"node_id":1475,"slug":"the-eureka-mining-district-producing-ore-since-1864","title":"The Eureka Mining District Producing Ore Since 1864","latitude":"39.555251","longitude":"-115.995736","city":"---","county":"Eureka County","marker_number":"254"}]